{
  "addresses": [
    {
      "uprn": "100071365514",
      "organisationName": "Subway",
      "town": "Coventry",
      "county": "",
      "postcode": "CV1 1HL",
      "addressLine1": "27 The Burges",
      "addressLine2": "",
      "longitude": -1.5105505,
      "latitude": 52.4100149
    },
    {
      "uprn": "200001169830",
      "organisationName": "Boots",
      "town": "Coventry",
      "county": "",
      "postcode": "CV1 1FZ",
      "addressLine1": "Flat 22, Hillman House",
      "addressLine2": "Smithford Way",
      "longitude": -1.5127917,
      "latitude": 52.4098487
    },
    {
      "uprn": "10093949069",
      "organisationName": "Halifax",
      "town": "Coventry",
      "county": "",
      "postcode": "CV1 2GS",
      "addressLine1": "209, Abbey House",
      "addressLine2": "7 Manor Road",
      "longitude": -1.5115452,
      "latitude": 52.4024763
    },
    {
      "uprn": "100070723413",
      "organisationName": "",
      "town": "Coventry",
      "county": "",
      "postcode": "CV1 5HL",
      "addressLine1": "3 Wright Street",
      "addressLine2": "",
      "longitude": -1.4972809,
      "latitude": 52.4160186
    },
    {
      "uprn": "100070682830",
      "organisationName": "",
      "town": "Coventry",
      "county": "",
      "postcode": "CV1 3BX",
      "addressLine1": "10 Norfolk Street",
      "addressLine2": "",
      "longitude": -1.5211154,
      "latitude": 52.4091232
    },
    {
      "uprn": "100070611271",
      "organisationName": "",
      "town": "Coventry",
      "county": "",
      "postcode": "CV1 5BN",
      "addressLine1": "17 Alfred Road",
      "addressLine2": "",
      "longitude": -1.4921664,
      "latitude": 52.4145494
    },
    {
      "uprn": "100070678347",
      "organisationName": "",
      "town": "Coventry",
      "county": "",
      "postcode": "CV1 4DL",
      "addressLine1": "21 Meriden Street",
      "addressLine2": "",
      "longitude": -1.5214568,
      "latitude": 52.4115429
    },
    {
      "uprn": "100070644787",
      "organisationName": "",
      "town": "Coventry",
      "county": "",
      "postcode": "CV1 4EW",
      "addressLine1": "23 Ellys Road",
      "addressLine2": "",
      "longitude": -1.5141252,
      "latitude": 52.4178331
    },
    {
      "uprn": "100070707825",
      "organisationName": "",
      "town": "Coventry",
      "county": "",
      "postcode": "CV1 5FZ",
      "addressLine1": "46 Swanswell Street",
      "addressLine2": "",
      "longitude": -1.5047175,
      "latitude": 52.4136676
    },
    {
      "uprn": "100070651299",
      "organisationName": "",
      "town": "Coventry",
      "county": "",
      "postcode": "CV1 4HU",
      "addressLine1": "54 George Elliot Road",
      "addressLine2": "",
      "longitude": -1.5043275,
      "latitude": 52.4195995
    },
    {
      "uprn": "100071493442",
      "organisationName": "",
      "town": "Coventry",
      "county": "",
      "postcode": "CV1 4BN",
      "addressLine1": "63 St. Nicholas Street",
      "addressLine2": "",
      "longitude": -1.5141723,
      "latitude": 52.4148845
    },
    {
      "uprn": "100070702224",
      "organisationName": "",
      "town": "Coventry",
      "county": "",
      "postcode": "CV1 2DL",
      "addressLine1": "64 St. Georges Road",
      "addressLine2": "",
      "longitude": -1.4910492,
      "latitude": 52.4055904
    },
    {
      "uprn": "100070703337",
      "organisationName": "",
      "town": "Coventry",
      "county": "",
      "postcode": "CV1 4BN",
      "addressLine1": "73 St. Nicholas Street",
      "addressLine2": "",
      "longitude": -1.5143881,
      "latitude": 52.4153169
    },
    {
      "uprn": "100070720380",
      "organisationName": "",
      "town": "Coventry",
      "county": "",
      "postcode": "CV1 4EJ",
      "addressLine1": "85 Widdrington Road",
      "addressLine2": "",
      "longitude": -1.5105206,
      "latitude": 52.4193646
    },
    {
      "uprn": "100070641411",
      "organisationName": "",
      "town": "Coventry",
      "county": "",
      "postcode": "CV1 4EB",
      "addressLine1": "100 Dorset Road",
      "addressLine2": "",
      "longitude": -1.5133605,
      "latitude": 52.4191785
    },
    {
      "uprn": "10023037302",
      "organisationName": "",
      "town": "Coventry",
      "county": "",
      "postcode": "CV1 3HZ",
      "addressLine1": "1 Sherbourne House",
      "addressLine2": "Vincent Street",
      "longitude": -1.5222817,
      "latitude": 52.4063014
    },
    {
      "uprn": "100071322324",
      "organisationName": "",
      "town": "Coventry",
      "county": "",
      "postcode": "CV1 3DT",
      "addressLine1": "Flat 1, Milestone House",
      "addressLine2": "Windsor Street",
      "longitude": -1.5220235,
      "latitude": 52.408075
    },
    {
      "uprn": "100071316434",
      "organisationName": "",
      "town": "Coventry",
      "county": "",
      "postcode": "CV1 5NP",
      "addressLine1": "Flat 4, Mountfield Court",
      "addressLine2": "Charles Street",
      "longitude": -1.5007131,
      "latitude": 52.4128417
    },
    {
      "uprn": "10094851020",
      "organisationName": "",
      "town": "Coventry",
      "county": "",
      "postcode": "CV1 5SF",
      "addressLine1": "Flat 12, B-02 Code Student Accommodation",
      "addressLine2": "Fairfax Street",
      "longitude": -1.5044075,
      "latitude": 52.4098824
    },
    {
      "uprn": "10094851235",
      "organisationName": "",
      "town": "Coventry",
      "county": "",
      "postcode": "CV1 5SH",
      "addressLine1": "Flat 12, B-15 Code Student Accommodation",
      "addressLine2": "Fairfax Street",
      "longitude": -1.5044075,
      "latitude": 52.4098824
    },
    {
      "uprn": "10003613693",
      "organisationName": "",
      "town": "Coventry",
      "county": "",
      "postcode": "CV1 3LL",
      "addressLine1": "Flat 44, Compass Court",
      "addressLine2": "Norfolk Street",
      "longitude": -1.5216198,
      "latitude": 52.4087027
    },
    {
      "uprn": "10094849794",
      "organisationName": "",
      "town": "Coventry",
      "county": "",
      "postcode": "CV1 2XY",
      "addressLine1": "D.02.20H, Paradise Student Village",
      "addressLine2": "Paradise Street",
      "longitude": -1.5015944,
      "latitude": 52.4035067
    },
    {
      "uprn": "100070135719",
      "organisationName": "",
      "town": "Nuneaton",
      "county": "",
      "postcode": "CV10 7NJ",
      "addressLine1": "1 Arbury Road",
      "addressLine2": "",
      "longitude": -1.4959532,
      "latitude": 52.5156859
    },
    {
      "uprn": "10094003633",
      "organisationName": "",
      "town": "Nuneaton",
      "county": "",
      "postcode": "CV11 6GT",
      "addressLine1": "1 Augustus Close",
      "addressLine2": "",
      "longitude": -1.4437219,
      "latitude": 52.5447419
    },
    {
      "uprn": "10001172773",
      "organisationName": "",
      "town": "Nuneaton",
      "county": "",
      "postcode": "CV10 7QS",
      "addressLine1": "1 Post Office Row, Castle Drive",
      "addressLine2": "Astley",
      "longitude": -1.5441662,
      "latitude": 52.501794
    },
    {
      "uprn": "100070170688",
      "organisationName": "",
      "town": "Bedworth",
      "county": "",
      "postcode": "CV12 8RD",
      "addressLine1": "1 Wessex Close",
      "addressLine2": "",
      "longitude": -1.4851531,
      "latitude": 52.4840125
    },
    {
      "uprn": "10000226122",
      "organisationName": "",
      "town": "Nuneaton",
      "county": "",
      "postcode": "CV10 9TE",
      "addressLine1": "5 Arklet Close",
      "addressLine2": "",
      "longitude": -1.5112743,
      "latitude": 52.5253964
    },
    {
      "uprn": "10007776315",
      "organisationName": "",
      "town": "Nuneaton",
      "county": "",
      "postcode": "CV10 9FD",
      "addressLine1": "5 Hornbeam Close",
      "addressLine2": "",
      "longitude": -1.5063881,
      "latitude": 52.5321195
    },
    {
      "uprn": "100070155347",
      "organisationName": "",
      "town": "Nuneaton",
      "county": "",
      "postcode": "CV11 6FX",
      "addressLine1": "5 Lichfield Close",
      "addressLine2": "",
      "longitude": -1.43815,
      "latitude": 52.5371006
    },
    {
      "uprn": "100070163412",
      "organisationName": "",
      "town": "Nuneaton",
      "county": "",
      "postcode": "CV10 0DR",
      "addressLine1": "5 Romsey Avenue",
      "addressLine2": "",
      "longitude": -1.4613063,
      "latitude": 52.5387635
    },
    {
      "uprn": "100070154282",
      "organisationName": "",
      "town": "Nuneaton",
      "county": "",
      "postcode": "CV11 5LP",
      "addressLine1": "6 Kingsway",
      "addressLine2": "",
      "longitude": -1.4777881,
      "latitude": 52.5213783
    },
    {
      "uprn": "100070141858",
      "organisationName": "",
      "town": "Nuneaton",
      "county": "",
      "postcode": "CV11 5ES",
      "addressLine1": "7 Charles Street",
      "addressLine2": "",
      "longitude": -1.4795357,
      "latitude": 52.5282818
    },
    {
      "uprn": "100070134889",
      "organisationName": "",
      "town": "Bedworth",
      "county": "",
      "postcode": "CV12 9BP",
      "addressLine1": "8 Alexander Road",
      "addressLine2": "",
      "longitude": -1.4666575,
      "latitude": 52.4840295
    },
    {
      "uprn": "10000229974",
      "organisationName": "",
      "town": "Nuneaton",
      "county": "",
      "postcode": "CV11 4XZ",
      "addressLine1": "8 Gold Close",
      "addressLine2": "",
      "longitude": -1.4515146,
      "latitude": 52.5057522
    },
    {
      "uprn": "100070149978",
      "organisationName": "",
      "town": "Nuneaton",
      "county": "",
      "postcode": "CV10 7EY",
      "addressLine1": "8 Greenmoor Road",
      "addressLine2": "",
      "longitude": -1.4755129,
      "latitude": 52.5145453
    },
    {
      "uprn": "100070124446",
      "organisationName": "",
      "town": "Nuneaton",
      "county": "",
      "postcode": "CV10 9PN",
      "addressLine1": "9 St. Lawrence Road",
      "addressLine2": "Ansley",
      "longitude": -1.5619183,
      "latitude": 52.522484
    },
    {
      "uprn": "100070163670",
      "organisationName": "",
      "town": "Nuneaton",
      "county": "",
      "postcode": "CV10 9RU",
      "addressLine1": "10 Ruskin Close",
      "addressLine2": "Galley Common",
      "longitude": -1.5242642,
      "latitude": 52.5263393
    },
    {
      "uprn": "100070163556",
      "organisationName": "",
      "town": "Nuneaton",
      "county": "",
      "postcode": "CV11 4RR",
      "addressLine1": "11 Roxburgh Road",
      "addressLine2": "",
      "longitude": -1.4505963,
      "latitude": 52.5073212
    },
    {
      "uprn": "100070139114",
      "organisationName": "",
      "town": "Bedworth",
      "county": "",
      "postcode": "CV12 9RF",
      "addressLine1": "12 Brewer Road",
      "addressLine2": "Bulkington",
      "longitude": -1.4191202,
      "latitude": 52.4741954
    },
    {
      "uprn": "100070139827",
      "organisationName": "",
      "town": "Nuneaton",
      "county": "",
      "postcode": "CV11 4SA",
      "addressLine1": "12 Bulkington Lane",
      "addressLine2": "",
      "longitude": -1.4352494,
      "latitude": 52.5046059
    },
    {
      "uprn": "10000226444",
      "organisationName": "",
      "town": "Bedworth",
      "county": "",
      "postcode": "CV12 0PP",
      "addressLine1": "12 Laburnum Close",
      "addressLine2": "",
      "longitude": -1.4979638,
      "latitude": 52.4775857
    },
    {
      "uprn": "100070144035",
      "organisationName": "",
      "town": "Bedworth",
      "county": "",
      "postcode": "CV12 9LY",
      "addressLine1": "13 Coventry Road",
      "addressLine2": "Bulkington",
      "longitude": -1.4279233,
      "latitude": 52.475398
    },
    {
      "uprn": "100070162529",
      "organisationName": "",
      "town": "Nuneaton",
      "county": "",
      "postcode": "CV10 7NN",
      "addressLine1": "15 Radnor Drive",
      "addressLine2": "",
      "longitude": -1.4959248,
      "latitude": 52.5143013
    },
    {
      "uprn": "100070166703",
      "organisationName": "",
      "town": "Nuneaton",
      "county": "",
      "postcode": "CV10 7LR",
      "addressLine1": "15 Stroma Way",
      "addressLine2": "",
      "longitude": -1.4896945,
      "latitude": 52.5153265
    },
    {
      "uprn": "10094002417",
      "organisationName": "",
      "town": "Nuneaton",
      "county": "",
      "postcode": "CV10 7GS",
      "addressLine1": "16 Eider Close",
      "addressLine2": "",
      "longitude": -1.4771518,
      "latitude": 52.5049823
    },
    {
      "uprn": "100070163128",
      "organisationName": "",
      "town": "Bedworth",
      "county": "",
      "postcode": "CV12 8BY",
      "addressLine1": "16 Reynolds Road",
      "addressLine2": "",
      "longitude": -1.4815481,
      "latitude": 52.4875389
    },
    {
      "uprn": "100070136160",
      "organisationName": "",
      "town": "Nuneaton",
      "county": "",
      "postcode": "CV10 7HH",
      "addressLine1": "17 Ashdown Drive",
      "addressLine2": "",
      "longitude": -1.4895543,
      "latitude": 52.513429
    },
    {
      "uprn": "100070144594",
      "organisationName": "",
      "town": "Nuneaton",
      "county": "",
      "postcode": "CV10 8NS",
      "addressLine1": "17 Cromdale Close",
      "addressLine2": "",
      "longitude": -1.5244744,
      "latitude": 52.5177906
    },
    {
      "uprn": "100070150172",
      "organisationName": "",
      "town": "Nuneaton",
      "county": "",
      "postcode": "CV11 6PB",
      "addressLine1": "18 Greenside Close",
      "addressLine2": "",
      "longitude": -1.4267257,
      "latitude": 52.5075137
    },
    {
      "uprn": "100070161595",
      "organisationName": "",
      "town": "Nuneaton",
      "county": "",
      "postcode": "CV10 9HY",
      "addressLine1": "18 Portland Drive",
      "addressLine2": "",
      "longitude": -1.5130348,
      "latitude": 52.5248013
    },
    {
      "uprn": "100070143916",
      "organisationName": "",
      "town": "Nuneaton",
      "county": "",
      "postcode": "CV11 6JB",
      "addressLine1": "19 Courtney Close",
      "addressLine2": "",
      "longitude": -1.4418413,
      "latitude": 52.5378373
    },
    {
      "uprn": "100070124540",
      "organisationName": "",
      "town": "Nuneaton",
      "county": "",
      "postcode": "CV10 0UG",
      "addressLine1": "23 Stoneleigh Close",
      "addressLine2": "Hartshill",
      "longitude": -1.5218218,
      "latitude": 52.551735
    },
    {
      "uprn": "100070158276",
      "organisationName": "",
      "town": "Nuneaton",
      "county": "",
      "postcode": "CV10 8DA",
      "addressLine1": "26 Monmouth Gardens",
      "addressLine2": "",
      "longitude": -1.4955745,
      "latitude": 52.520449
    },
    {
      "uprn": "100070167281",
      "organisationName": "",
      "town": "Bedworth",
      "county": "",
      "postcode": "CV12 9PW",
      "addressLine1": "27 The Birches",
      "addressLine2": "Bulkington",
      "longitude": -1.4295833,
      "latitude": 52.4862756
    },
    {
      "uprn": "100030532115",
      "organisationName": "",
      "town": "Nuneaton",
      "county": "",
      "postcode": "CV13 0RJ",
      "addressLine1": "28 Northumberland Avenue",
      "addressLine2": "Market Bosworth",
      "longitude": -1.4050614,
      "latitude": 52.6214084
    },
    {
      "uprn": "10094002593",
      "organisationName": "",
      "town": "Nuneaton",
      "county": "",
      "postcode": "CV11 6WQ",
      "addressLine1": "29 Ombersley Drive",
      "addressLine2": "",
      "longitude": -1.429194,
      "latitude": 52.5345633
    },
    {
      "uprn": "100070170565",
      "organisationName": "",
      "town": "Nuneaton",
      "county": "",
      "postcode": "CV10 0AG",
      "addressLine1": "30 Weddington Terrace",
      "addressLine2": "",
      "longitude": -1.4628937,
      "latitude": 52.5270747
    },
    {
      "uprn": "100070139426",
      "organisationName": "",
      "town": "Nuneaton",
      "county": "",
      "postcode": "CV10 0BL",
      "addressLine1": "31 Brookdale Road",
      "addressLine2": "",
      "longitude": -1.4548399,
      "latitude": 52.5346884
    },
    {
      "uprn": "100070161741",
      "organisationName": "",
      "town": "Bedworth",
      "county": "",
      "postcode": "CV12 0DH",
      "addressLine1": "33 Potters Road",
      "addressLine2": "",
      "longitude": -1.4990991,
      "latitude": 52.4722594
    },
    {
      "uprn": "100070164275",
      "organisationName": "",
      "town": "Bedworth",
      "county": "",
      "postcode": "CV12 9QQ",
      "addressLine1": "36 Severn Road",
      "addressLine2": "Bulkington",
      "longitude": -1.4383657,
      "latitude": 52.4797093
    },
    {
      "uprn": "100030533062",
      "organisationName": "",
      "town": "Nuneaton",
      "county": "",
      "postcode": "CV13 6EZ",
      "addressLine1": "36 Station Road",
      "addressLine2": "Stoke Golding",
      "longitude": -1.4181706,
      "latitude": 52.5718584
    },
    {
      "uprn": "100070144665",
      "organisationName": "",
      "town": "Nuneaton",
      "county": "",
      "postcode": "CV10 8HY",
      "addressLine1": "37 Cross Street",
      "addressLine2": "",
      "longitude": -1.5059613,
      "latitude": 52.5207445
    },
    {
      "uprn": "100030533548",
      "organisationName": "",
      "town": "Nuneaton",
      "county": "",
      "postcode": "CV13 0ND",
      "addressLine1": "38 York Close",
      "addressLine2": "Market Bosworth",
      "longitude": -1.4097617,
      "latitude": 52.6211892
    },
    {
      "uprn": "100070157735",
      "organisationName": "",
      "town": "Nuneaton",
      "county": "",
      "postcode": "CV10 9JY",
      "addressLine1": "39 Merlin Avenue",
      "addressLine2": "",
      "longitude": -1.5208372,
      "latitude": 52.5283752
    },
    {
      "uprn": "100070163286",
      "organisationName": "",
      "town": "Nuneaton",
      "county": "",
      "postcode": "CV11 5QT",
      "addressLine1": "43 Riversley Road",
      "addressLine2": "",
      "longitude": -1.469211,
      "latitude": 52.5190212
    },
    {
      "uprn": "10000229817",
      "organisationName": "",
      "town": "Nuneaton",
      "county": "",
      "postcode": "CV10 0HG",
      "addressLine1": "47 Cleaver Gardens",
      "addressLine2": "",
      "longitude": -1.4699632,
      "latitude": 52.5329786
    },
    {
      "uprn": "100070154671",
      "organisationName": "",
      "town": "Bedworth",
      "county": "",
      "postcode": "CV12 8DL",
      "addressLine1": "49 Knightsbridge Avenue",
      "addressLine2": "",
      "longitude": -1.4710789,
      "latitude": 52.4886343
    },
    {
      "uprn": "100070163600",
      "organisationName": "",
      "town": "Nuneaton",
      "county": "",
      "postcode": "CV11 4RR",
      "addressLine1": "53 Roxburgh Road",
      "addressLine2": "",
      "longitude": -1.4522709,
      "latitude": 52.5089112
    },
    {
      "uprn": "100070157598",
      "organisationName": "",
      "town": "Bedworth",
      "county": "",
      "postcode": "CV12 0ES",
      "addressLine1": "59 Melrose Avenue",
      "addressLine2": "",
      "longitude": -1.501356,
      "latitude": 52.4692573
    },
    {
      "uprn": "100070142944",
      "organisationName": "",
      "town": "Bedworth",
      "county": "",
      "postcode": "CV12 9RP",
      "addressLine1": "60 Claremont Close",
      "addressLine2": "Bulkington",
      "longitude": -1.4289282,
      "latitude": 52.48371
    },
    {
      "uprn": "100070159768",
      "organisationName": "",
      "town": "Bedworth",
      "county": "",
      "postcode": "CV12 9QP",
      "addressLine1": "63 Nuneaton Road",
      "addressLine2": "Bulkington",
      "longitude": -1.4224929,
      "latitude": 52.4797228
    },
    {
      "uprn": "10000231923",
      "organisationName": "",
      "town": "Nuneaton",
      "county": "",
      "postcode": "CV11 4GF",
      "addressLine1": "65 Upton Drive",
      "addressLine2": "",
      "longitude": -1.4463425,
      "latitude": 52.5010101
    },
    {
      "uprn": "10001170643",
      "organisationName": "",
      "town": "Nuneaton",
      "county": "",
      "postcode": "CV10 0QD",
      "addressLine1": "66 Ansley Common",
      "addressLine2": "",
      "longitude": -1.5326145,
      "latitude": 52.5381314
    },
    {
      "uprn": "100070142637",
      "organisationName": "",
      "town": "Nuneaton",
      "county": "",
      "postcode": "CV10 0EZ",
      "addressLine1": "66 Church Lane",
      "addressLine2": "",
      "longitude": -1.4688602,
      "latitude": 52.5371254
    },
    {
      "uprn": "100070124205",
      "organisationName": "",
      "town": "Nuneaton",
      "county": "",
      "postcode": "CV10 0TE",
      "addressLine1": "67 Oldbury Road",
      "addressLine2": "",
      "longitude": -1.5258485,
      "latitude": 52.542114
    },
    {
      "uprn": "100070144966",
      "organisationName": "",
      "town": "Bedworth",
      "county": "",
      "postcode": "CV12 8SE",
      "addressLine1": "75 Dalton Road",
      "addressLine2": "",
      "longitude": -1.4821602,
      "latitude": 52.4755398
    },
    {
      "uprn": "100070149918",
      "organisationName": "",
      "town": "Nuneaton",
      "county": "",
      "postcode": "CV10 9EQ",
      "addressLine1": "88 Green Lane",
      "addressLine2": "",
      "longitude": -1.509744,
      "latitude": 52.5344339
    },
    {
      "uprn": "100070163071",
      "organisationName": "",
      "town": "Nuneaton",
      "county": "",
      "postcode": "CV11 4BL",
      "addressLine1": "89 Regent Street",
      "addressLine2": "",
      "longitude": -1.462294,
      "latitude": 52.5242851
    },
    {
      "uprn": "100070149089",
      "organisationName": "",
      "town": "Nuneaton",
      "county": "",
      "postcode": "CV10 0DY",
      "addressLine1": "90 Glenfield Avenue",
      "addressLine2": "",
      "longitude": -1.4604622,
      "latitude": 52.5354513
    },
    {
      "uprn": "100070138845",
      "organisationName": "",
      "town": "Nuneaton",
      "county": "",
      "postcode": "CV11 4QS",
      "addressLine1": "93 Bradestone Road",
      "addressLine2": "",
      "longitude": -1.4610626,
      "latitude": 52.5056612
    },
    {
      "uprn": "100070164455",
      "organisationName": "",
      "town": "Nuneaton",
      "county": "",
      "postcode": "CV11 6NW",
      "addressLine1": "101 Shakespeare Drive",
      "addressLine2": "",
      "longitude": -1.4378264,
      "latitude": 52.5104797
    },
    {
      "uprn": "100070168424",
      "organisationName": "",
      "town": "Nuneaton",
      "county": "",
      "postcode": "CV10 8BN",
      "addressLine1": "102 Tomkinson Road",
      "addressLine2": "",
      "longitude": -1.4881949,
      "latitude": 52.5213702
    },
    {
      "uprn": "100030532635",
      "organisationName": "",
      "town": "Nuneaton",
      "county": "",
      "postcode": "CV13 6EJ",
      "addressLine1": "111 Sherwood Road",
      "addressLine2": "Stoke Golding",
      "longitude": -1.4104167,
      "latitude": 52.5713075
    },
    {
      "uprn": "100070142429",
      "organisationName": "",
      "town": "Nuneaton",
      "county": "",
      "postcode": "CV11 4TJ",
      "addressLine1": "121 Chetwynd Drive",
      "addressLine2": "",
      "longitude": -1.4267911,
      "latitude": 52.5013468
    },
    {
      "uprn": "100070161031",
      "organisationName": "",
      "town": "Bedworth",
      "county": "",
      "postcode": "CV12 8LA",
      "addressLine1": "128 Park Road",
      "addressLine2": "",
      "longitude": -1.4762759,
      "latitude": 52.4788493
    },
    {
      "uprn": "10093104158",
      "organisationName": "",
      "town": "Nuneaton",
      "county": "",
      "postcode": "CV13 6ED",
      "addressLine1": "143 Hinckley Road",
      "addressLine2": "Stoke Golding",
      "longitude": -1.4015158,
      "latitude": 52.5725927
    },
    {
      "uprn": "100070158854",
      "organisationName": "",
      "town": "Bedworth",
      "county": "",
      "postcode": "CV12 0EP",
      "addressLine1": "148 Newcomen Road",
      "addressLine2": "",
      "longitude": -1.5031178,
      "latitude": 52.4696693
    },
    {
      "uprn": "100070138364",
      "organisationName": "",
      "town": "Nuneaton",
      "county": "",
      "postcode": "CV10 8AE",
      "addressLine1": "182 Black-A-Tree Road",
      "addressLine2": "",
      "longitude": -1.4909421,
      "latitude": 52.5248786
    },
    {
      "uprn": "100070150735",
      "organisationName": "",
      "town": "Nuneaton",
      "county": "",
      "postcode": "CV10 8DE",
      "addressLine1": "243 Haunchwood Road",
      "addressLine2": "",
      "longitude": -1.4992504,
      "latitude": 52.5211928
    },
    {
      "uprn": "100070170903",
      "organisationName": "",
      "town": "Nuneaton",
      "county": "",
      "postcode": "CV10 8HJ",
      "addressLine1": "247 Westbury Road",
      "addressLine2": "",
      "longitude": -1.5009476,
      "latitude": 52.5209932
    },
    {
      "uprn": "100070165304",
      "organisationName": "",
      "town": "Bedworth",
      "county": "",
      "postcode": "CV12 0JW",
      "addressLine1": "270 Smorrall Lane",
      "addressLine2": "",
      "longitude": -1.5033969,
      "latitude": 52.4749566
    },
    {
      "uprn": "100070141436",
      "organisationName": "",
      "town": "Nuneaton",
      "county": "",
      "postcode": "CV10 9DU",
      "addressLine1": "356 Cedar Road",
      "addressLine2": "",
      "longitude": -1.5008631,
      "latitude": 52.5310166
    },
    {
      "uprn": "10007773229",
      "organisationName": "",
      "town": "Bedworth",
      "county": "",
      "postcode": "CV12 9NG",
      "addressLine1": "12A Leicester Street",
      "addressLine2": "Bulkington",
      "longitude": -1.4245975,
      "latitude": 52.4764388
    },
    {
      "uprn": "100071495483",
      "organisationName": "",
      "town": "Nuneaton",
      "county": "",
      "postcode": "CV10 9EF",
      "addressLine1": "69A Tudor Road",
      "addressLine2": "",
      "longitude": -1.5080994,
      "latitude": 52.5325212
    },
    {
      "uprn": "100030532446",
      "organisationName": "",
      "town": "Nuneaton",
      "county": "",
      "postcode": "CV13 0BY",
      "addressLine1": "Carlton House",
      "addressLine2": "Shackerstone Walk",
      "longitude": -1.420447,
      "latitude": 52.6409207
    },
    {
      "uprn": "100030531058",
      "organisationName": "",
      "town": "Nuneaton",
      "county": "",
      "postcode": "CV13 6HF",
      "addressLine1": "Honeysuckle Cottage",
      "addressLine2": "High Street",
      "longitude": -1.4143413,
      "latitude": 52.5729834
    },
    {
      "uprn": "10007773579",
      "organisationName": "",
      "town": "Nuneaton",
      "county": "",
      "postcode": "CV11 5PG",
      "addressLine1": "Flat 1",
      "addressLine2": "59 Marlborough Road",
      "longitude": -1.4764434,
      "latitude": 52.5206655
    },
    {
      "uprn": "10007777526",
      "organisationName": "",
      "town": "Nuneaton",
      "county": "",
      "postcode": "CV11 5JF",
      "addressLine1": "Flat 1, Abbey House",
      "addressLine2": "Meadow Street",
      "longitude": -1.4729247,
      "latitude": 52.5247738
    },
    {
      "uprn": "100071234807",
      "organisationName": "",
      "town": "Nuneaton",
      "county": "",
      "postcode": "CV11 4PS",
      "addressLine1": "Flat 1B, Rolfe Court",
      "addressLine2": "Freer Street",
      "longitude": -1.4539019,
      "latitude": 52.5133502
    },
    {
      "uprn": "10007771430",
      "organisationName": "",
      "town": "Bedworth",
      "county": "",
      "postcode": "CV12 9DP",
      "addressLine1": "Flat 5",
      "addressLine2": "17 Brick Kiln Way",
      "longitude": -1.4635063,
      "latitude": 52.480389
    }
  ]
}