{
  "addresses": [
    {
      "uprn": "100070656363",
      "organisationName": "",
      "town": "Coventry",
      "county": "",
      "postcode": "CV2 2AU",
      "addressLine1": "5 Hall Lane",
      "addressLine2": "",
      "longitude": -1.4434729,
      "latitude": 52.4249837
    },
    {
      "uprn": "100070612701",
      "organisationName": "",
      "town": "Coventry",
      "county": "",
      "postcode": "CV2 2LP",
      "addressLine1": "6 Anson Way",
      "addressLine2": "Walsgrave On Sowe",
      "longitude": -1.4443251,
      "latitude": 52.4308942
    },
    {
      "uprn": "100070686685",
      "organisationName": "",
      "town": "Coventry",
      "county": "",
      "postcode": "CV2 2FG",
      "addressLine1": "6 Pancras Close",
      "addressLine2": "",
      "longitude": -1.4505252,
      "latitude": 52.4373421
    },
    {
      "uprn": "100070637290",
      "organisationName": "",
      "town": "Coventry",
      "county": "",
      "postcode": "CV2 2DD",
      "addressLine1": "20 Cressage Road",
      "addressLine2": "",
      "longitude": -1.4377116,
      "latitude": 52.4247137
    },
    {
      "uprn": "100070686699",
      "organisationName": "",
      "town": "Coventry",
      "county": "",
      "postcode": "CV2 2FG",
      "addressLine1": "20 Pancras Close",
      "addressLine2": "",
      "longitude": -1.450176,
      "latitude": 52.4370348
    },
    {
      "uprn": "10003611095",
      "organisationName": "",
      "town": "Coventry",
      "county": "",
      "postcode": "CV2 2LN",
      "addressLine1": "22 Elizabeth Way",
      "addressLine2": "",
      "longitude": -1.4429052,
      "latitude": 52.4299354
    },
    {
      "uprn": "100070721193",
      "organisationName": "",
      "town": "Coventry",
      "county": "",
      "postcode": "CV2 2HZ",
      "addressLine1": "26 Wimborne Drive",
      "addressLine2": "",
      "longitude": -1.4423531,
      "latitude": 52.4158264
    },
    {
      "uprn": "100070695717",
      "organisationName": "",
      "town": "Coventry",
      "county": "",
      "postcode": "CV2 2HB",
      "addressLine1": "46 Runcorn Walk",
      "addressLine2": "",
      "longitude": -1.4386013,
      "latitude": 52.426453
    },
    {
      "uprn": "100070699343",
      "organisationName": "",
      "town": "Coventry",
      "county": "",
      "postcode": "CV2 2EN",
      "addressLine1": "46 Shirley Road",
      "addressLine2": "",
      "longitude": -1.4416588,
      "latitude": 52.4288948
    },
    {
      "uprn": "10091719044",
      "organisationName": "",
      "town": "Coventry",
      "county": "",
      "postcode": "CV2 2EG",
      "addressLine1": "Apartment 18, Montague Court",
      "addressLine2": "89 Woodway Lane",
      "longitude": -1.4460668,
      "latitude": 52.4278921
    },
    {
      "uprn": "100070683030",
      "organisationName": "",
      "town": "Coventry",
      "county": "",
      "postcode": "CV2 4DH",
      "addressLine1": "1 North Avenue",
      "addressLine2": "",
      "longitude": -1.482652,
      "latitude": 52.4084308
    },
    {
      "uprn": "100070694981",
      "organisationName": "",
      "town": "Coventry",
      "county": "",
      "postcode": "CV2 1AH",
      "addressLine1": "3 Rosemount Close",
      "addressLine2": "",
      "longitude": -1.4558671,
      "latitude": 52.4300039
    },
    {
      "uprn": "100070638095",
      "organisationName": "",
      "town": "Coventry",
      "county": "",
      "postcode": "CV2 3AG",
      "addressLine1": "5 Curtis Road",
      "addressLine2": "",
      "longitude": -1.4639571,
      "latitude": 52.4226221
    },
    {
      "uprn": "100070635943",
      "organisationName": "",
      "town": "Coventry",
      "county": "",
      "postcode": "CV2 4AQ",
      "addressLine1": "8 Copperfield Road",
      "addressLine2": "",
      "longitude": -1.4751047,
      "latitude": 52.4076963
    },
    {
      "uprn": "100070661627",
      "organisationName": "",
      "town": "Coventry",
      "county": "",
      "postcode": "CV2 5ER",
      "addressLine1": "12 Hocking Road",
      "addressLine2": "",
      "longitude": -1.4559307,
      "latitude": 52.4152693
    },
    {
      "uprn": "100070657441",
      "organisationName": "",
      "town": "Coventry",
      "county": "",
      "postcode": "CV2 5LG",
      "addressLine1": "14 Harold Road",
      "addressLine2": "",
      "longitude": -1.4588623,
      "latitude": 52.4051868
    },
    {
      "uprn": "100070658131",
      "organisationName": "",
      "town": "Coventry",
      "county": "",
      "postcode": "CV2 4JD",
      "addressLine1": "16 Hastings Road",
      "addressLine2": "",
      "longitude": -1.4862645,
      "latitude": 52.4125551
    },
    {
      "uprn": "100070686191",
      "organisationName": "",
      "town": "Coventry",
      "county": "",
      "postcode": "CV2 4PT",
      "addressLine1": "19 Ox Close",
      "addressLine2": "",
      "longitude": -1.4814683,
      "latitude": 52.4228818
    },
    {
      "uprn": "100070712946",
      "organisationName": "",
      "town": "Coventry",
      "county": "",
      "postcode": "CV2 3DH",
      "addressLine1": "20 Tiverton Road",
      "addressLine2": "",
      "longitude": -1.4640801,
      "latitude": 52.4197836
    },
    {
      "uprn": "100070715156",
      "organisationName": "",
      "town": "Coventry",
      "county": "",
      "postcode": "CV2 3FZ",
      "addressLine1": "20 Uplands",
      "addressLine2": "",
      "longitude": -1.4823999,
      "latitude": 52.4186695
    },
    {
      "uprn": "100070724070",
      "organisationName": "",
      "town": "Coventry",
      "county": "",
      "postcode": "CV2 3BU",
      "addressLine1": "24 Wyken Grange Road",
      "addressLine2": "",
      "longitude": -1.4649769,
      "latitude": 52.4173693
    },
    {
      "uprn": "100070679567",
      "organisationName": "",
      "town": "Coventry",
      "county": "",
      "postcode": "CV2 4NN",
      "addressLine1": "27 Milton Street",
      "addressLine2": "",
      "longitude": -1.4807103,
      "latitude": 52.416046
    },
    {
      "uprn": "100070639537",
      "organisationName": "",
      "town": "Coventry",
      "county": "",
      "postcode": "CV2 4QX",
      "addressLine1": "33 Deegan Close",
      "addressLine2": "",
      "longitude": -1.4855839,
      "latitude": 52.4205084
    },
    {
      "uprn": "100070199676",
      "organisationName": "",
      "town": "Rugby",
      "county": "",
      "postcode": "CV21 2QY",
      "addressLine1": "39 Sycamore Grove",
      "addressLine2": "",
      "longitude": -1.2604024,
      "latitude": 52.3788999
    },
    {
      "uprn": "100070675978",
      "organisationName": "",
      "town": "Coventry",
      "county": "",
      "postcode": "CV2 4EP",
      "addressLine1": "42 Marlborough Road",
      "addressLine2": "",
      "longitude": -1.4841454,
      "latitude": 52.4089498
    },
    {
      "uprn": "100071498043",
      "organisationName": "",
      "town": "Coventry",
      "county": "",
      "postcode": "CV2 1HS",
      "addressLine1": "43 New Green Park, Wyken Croft",
      "addressLine2": "",
      "longitude": -1.4624467,
      "latitude": 52.427171
    },
    {
      "uprn": "100070182683",
      "organisationName": "",
      "town": "Rugby",
      "county": "",
      "postcode": "CV21 2LP",
      "addressLine1": "48 Dale Street",
      "addressLine2": "",
      "longitude": -1.2661316,
      "latitude": 52.3754005
    },
    {
      "uprn": "10000138848",
      "organisationName": "",
      "town": "Coventry",
      "county": "",
      "postcode": "CV2 3PX",
      "addressLine1": "51 Carroll Crescent",
      "addressLine2": "",
      "longitude": -1.4803706,
      "latitude": 52.4236147
    },
    {
      "uprn": "100070692237",
      "organisationName": "",
      "town": "Coventry",
      "county": "",
      "postcode": "CV2 5GQ",
      "addressLine1": "52 Ravensdale Road",
      "addressLine2": "",
      "longitude": -1.4638077,
      "latitude": 52.411934
    },
    {
      "uprn": "100070611953",
      "organisationName": "",
      "town": "Coventry",
      "county": "",
      "postcode": "CV2 3GZ",
      "addressLine1": "54 Alliance Way",
      "addressLine2": "",
      "longitude": -1.4803764,
      "latitude": 52.4194428
    },
    {
      "uprn": "100070703310",
      "organisationName": "",
      "town": "Coventry",
      "county": "",
      "postcode": "CV2 4EL",
      "addressLine1": "79 St. Michaels Road",
      "addressLine2": "",
      "longitude": -1.4826196,
      "latitude": 52.4086824
    },
    {
      "uprn": "100070702569",
      "organisationName": "",
      "town": "Coventry",
      "county": "",
      "postcode": "CV2 5FX",
      "addressLine1": "80 St. Ives Road",
      "addressLine2": "",
      "longitude": -1.4580812,
      "latitude": 52.4101548
    },
    {
      "uprn": "100070177111",
      "organisationName": "",
      "town": "Rugby",
      "county": "",
      "postcode": "CV21 2JL",
      "addressLine1": "84 Avenue Road",
      "addressLine2": "",
      "longitude": -1.2769149,
      "latitude": 52.3762155
    },
    {
      "uprn": "100070720289",
      "organisationName": "",
      "town": "Coventry",
      "county": "",
      "postcode": "CV2 1AS",
      "addressLine1": "87 Widdecombe Close",
      "addressLine2": "",
      "longitude": -1.4588373,
      "latitude": 52.4300625
    },
    {
      "uprn": "100070633752",
      "organisationName": "",
      "town": "Coventry",
      "county": "",
      "postcode": "CV2 4AL",
      "addressLine1": "93 Church Lane",
      "addressLine2": "",
      "longitude": -1.475251,
      "latitude": 52.4102322
    },
    {
      "uprn": "100070700057",
      "organisationName": "",
      "town": "Coventry",
      "county": "",
      "postcode": "CV2 1PZ",
      "addressLine1": "99 Silverdale Close",
      "addressLine2": "",
      "longitude": -1.477186,
      "latitude": 52.4492579
    },
    {
      "uprn": "100070702587",
      "organisationName": "",
      "town": "Coventry",
      "county": "",
      "postcode": "CV2 5FX",
      "addressLine1": "102 St. Ives Road",
      "addressLine2": "",
      "longitude": -1.4583806,
      "latitude": 52.4097157
    },
    {
      "uprn": "100070698652",
      "organisationName": "",
      "town": "Coventry",
      "county": "",
      "postcode": "CV2 4NF",
      "addressLine1": "184 Shakespeare Street",
      "addressLine2": "",
      "longitude": -1.4784536,
      "latitude": 52.4166564
    },
    {
      "uprn": "100070189534",
      "organisationName": "",
      "town": "Rugby",
      "county": "",
      "postcode": "CV21 2HS",
      "addressLine1": "204 Lawford Road",
      "addressLine2": "",
      "longitude": -1.2763538,
      "latitude": 52.3733087
    },
    {
      "uprn": "100070722082",
      "organisationName": "",
      "town": "Coventry",
      "county": "",
      "postcode": "CV2 1DF",
      "addressLine1": "213 Winston Avenue",
      "addressLine2": "",
      "longitude": -1.4551569,
      "latitude": 52.4323647
    },
    {
      "uprn": "100070716974",
      "organisationName": "",
      "town": "Coventry",
      "county": "",
      "postcode": "CV2 4AF",
      "addressLine1": "366 Walsgrave Road",
      "addressLine2": "",
      "longitude": -1.471851,
      "latitude": 52.41304
    },
    {
      "uprn": "100070659633",
      "organisationName": "",
      "town": "Coventry",
      "county": "",
      "postcode": "CV2 1AE",
      "addressLine1": "375 Henley Road",
      "addressLine2": "",
      "longitude": -1.4565122,
      "latitude": 52.428973
    },
    {
      "uprn": "100070183475",
      "organisationName": "",
      "town": "Rugby",
      "county": "",
      "postcode": "CV21 1QA",
      "addressLine1": "1 Dunnerdale",
      "addressLine2": "Brownsover",
      "longitude": -1.2421969,
      "latitude": 52.392076
    },
    {
      "uprn": "100070199252",
      "organisationName": "",
      "town": "Rugby",
      "county": "",
      "postcode": "CV23 0BT",
      "addressLine1": "1 Station Road",
      "addressLine2": "Clifton Upon Dunsmore",
      "longitude": -1.2259998,
      "latitude": 52.382702
    },
    {
      "uprn": "100070201045",
      "organisationName": "",
      "town": "Rugby",
      "county": "",
      "postcode": "CV23 0AH",
      "addressLine1": "2 Watling Crescent",
      "addressLine2": "Clifton Upon Dunsmore",
      "longitude": -1.2073018,
      "latitude": 52.3991293
    },
    {
      "uprn": "28014655",
      "organisationName": "",
      "town": "Rugby",
      "county": "",
      "postcode": "CV23 0SS",
      "addressLine1": "3 Hillmorton Lane",
      "addressLine2": "Lilbourne",
      "longitude": -1.1753543,
      "latitude": 52.3870346
    },
    {
      "uprn": "10010524795",
      "organisationName": "",
      "town": "Rugby",
      "county": "",
      "postcode": "CV22 7ZB",
      "addressLine1": "3 Oldbury Close",
      "addressLine2": "Cawston",
      "longitude": -1.2986454,
      "latitude": 52.357442
    },
    {
      "uprn": "100070179673",
      "organisationName": "",
      "town": "Rugby",
      "county": "",
      "postcode": "CV23 8AX",
      "addressLine1": "4 Bush Hill Lane",
      "addressLine2": "Flecknoe",
      "longitude": -1.2499069,
      "latitude": 52.2672131
    },
    {
      "uprn": "100070180934",
      "organisationName": "",
      "town": "Rugby",
      "county": "",
      "postcode": "CV23 0EW",
      "addressLine1": "4 Church Street",
      "addressLine2": "Churchover",
      "longitude": -1.2500286,
      "latitude": 52.4233401
    },
    {
      "uprn": "100070193597",
      "organisationName": "",
      "town": "Rugby",
      "county": "",
      "postcode": "CV23 0BW",
      "addressLine1": "4 North Road",
      "addressLine2": "Clifton Upon Dunsmore",
      "longitude": -1.2244846,
      "latitude": 52.3831147
    },
    {
      "uprn": "100071238053",
      "organisationName": "",
      "town": "Rugby",
      "county": "",
      "postcode": "CV23 0EL",
      "addressLine1": "5 Coton Road",
      "addressLine2": "Churchover",
      "longitude": -1.2447229,
      "latitude": 52.4136957
    },
    {
      "uprn": "10010509905",
      "organisationName": "",
      "town": "Rugby",
      "county": "",
      "postcode": "CV22 6DP",
      "addressLine1": "5 Ferndown Terrace",
      "addressLine2": "",
      "longitude": -1.2795567,
      "latitude": 52.3637922
    },
    {
      "uprn": "10010511138",
      "organisationName": "",
      "town": "Rugby",
      "county": "",
      "postcode": "CV23 0GP",
      "addressLine1": "7 Shortwheat Hill",
      "addressLine2": "",
      "longitude": -1.2423805,
      "latitude": 52.3976601
    },
    {
      "uprn": "100070181524",
      "organisationName": "",
      "town": "Rugby",
      "county": "",
      "postcode": "CV22 5RX",
      "addressLine1": "9 Conrad Close",
      "addressLine2": "",
      "longitude": -1.2721614,
      "latitude": 52.3517808
    },
    {
      "uprn": "100070196472",
      "organisationName": "",
      "town": "Rugby",
      "county": "",
      "postcode": "CV21 3AB",
      "addressLine1": "10 Richmond Road",
      "addressLine2": "",
      "longitude": -1.2450872,
      "latitude": 52.3677736
    },
    {
      "uprn": "100070184244",
      "organisationName": "",
      "town": "Rugby",
      "county": "",
      "postcode": "CV21 1NJ",
      "addressLine1": "12 Eskdale",
      "addressLine2": "",
      "longitude": -1.2494275,
      "latitude": 52.3937763
    },
    {
      "uprn": "10010507779",
      "organisationName": "",
      "town": "Rugby",
      "county": "",
      "postcode": "CV23 0UG",
      "addressLine1": "15 Cornflower Drive",
      "addressLine2": "",
      "longitude": -1.2442679,
      "latitude": 52.3964405
    },
    {
      "uprn": "10010523571",
      "organisationName": "",
      "town": "Rugby",
      "county": "",
      "postcode": "CV23 1AE",
      "addressLine1": "15 Handley Cross Avenue",
      "addressLine2": "Houlton",
      "longitude": -1.1821046,
      "latitude": 52.3593305
    },
    {
      "uprn": "10010518087",
      "organisationName": "",
      "town": "Rugby",
      "county": "",
      "postcode": "CV21 1FN",
      "addressLine1": "16 Lyttelton Close",
      "addressLine2": "",
      "longitude": -1.2527139,
      "latitude": 52.3819119
    },
    {
      "uprn": "100070194238",
      "organisationName": "",
      "town": "Rugby",
      "county": "",
      "postcode": "CV22 7PL",
      "addressLine1": "16 Oswald Way",
      "addressLine2": "",
      "longitude": -1.283895,
      "latitude": 52.3715952
    },
    {
      "uprn": "100070176756",
      "organisationName": "",
      "town": "Rugby",
      "county": "",
      "postcode": "CV21 3HD",
      "addressLine1": "19 Arnold Street",
      "addressLine2": "",
      "longitude": -1.2552483,
      "latitude": 52.373746
    },
    {
      "uprn": "100070186487",
      "organisationName": "",
      "town": "Rugby",
      "county": "",
      "postcode": "CV21 3LF",
      "addressLine1": "19 Grosvenor Road",
      "addressLine2": "",
      "longitude": -1.2527746,
      "latitude": 52.372935
    },
    {
      "uprn": "100070200204",
      "organisationName": "",
      "town": "Rugby",
      "county": "",
      "postcode": "CV23 0DS",
      "addressLine1": "19 The Orchards",
      "addressLine2": "Newton",
      "longitude": -1.2229487,
      "latitude": 52.3986308
    },
    {
      "uprn": "100070200329",
      "organisationName": "",
      "town": "Rugby",
      "county": "",
      "postcode": "CV22 5NA",
      "addressLine1": "19 Tower Road",
      "addressLine2": "",
      "longitude": -1.2487169,
      "latitude": 52.3653956
    },
    {
      "uprn": "100070198781",
      "organisationName": "",
      "town": "Rugby",
      "county": "",
      "postcode": "CV22 5NS",
      "addressLine1": "20 Southbrook Road",
      "addressLine2": "",
      "longitude": -1.2642186,
      "latitude": 52.3632752
    },
    {
      "uprn": "10010517449",
      "organisationName": "",
      "town": "Rugby",
      "county": "",
      "postcode": "CV21 1NU",
      "addressLine1": "23 Lower Lodge Avenue",
      "addressLine2": "",
      "longitude": -1.25172,
      "latitude": 52.3972521
    },
    {
      "uprn": "100070182881",
      "organisationName": "",
      "town": "Rugby",
      "county": "",
      "postcode": "CV22 7PY",
      "addressLine1": "25 Deepmore Road",
      "addressLine2": "",
      "longitude": -1.2823244,
      "latitude": 52.3606535
    },
    {
      "uprn": "100070186880",
      "organisationName": "",
      "town": "Rugby",
      "county": "",
      "postcode": "CV21 1JR",
      "addressLine1": "27 Hawlands",
      "addressLine2": "",
      "longitude": -1.2456873,
      "latitude": 52.3881785
    },
    {
      "uprn": "100071501200",
      "organisationName": "",
      "town": "Rugby",
      "county": "",
      "postcode": "CV22 5ES",
      "addressLine1": "30 Ashlawn Road",
      "addressLine2": "",
      "longitude": -1.2296261,
      "latitude": 52.3580447
    },
    {
      "uprn": "100070191110",
      "organisationName": "",
      "town": "Rugby",
      "county": "",
      "postcode": "CV22 6LP",
      "addressLine1": "30 Macbeth Close",
      "addressLine2": "",
      "longitude": -1.2821799,
      "latitude": 52.3490571
    },
    {
      "uprn": "100070195117",
      "organisationName": "",
      "town": "Rugby",
      "county": "",
      "postcode": "CV22 7BS",
      "addressLine1": "33 Pendred Road",
      "addressLine2": "",
      "longitude": -1.2788501,
      "latitude": 52.3710034
    },
    {
      "uprn": "100070201617",
      "organisationName": "",
      "town": "Rugby",
      "county": "",
      "postcode": "CV22 6QD",
      "addressLine1": "34 Weston Close",
      "addressLine2": "Dunchurch",
      "longitude": -1.2897363,
      "latitude": 52.3425648
    },
    {
      "uprn": "100070188257",
      "organisationName": "",
      "town": "Rugby",
      "county": "",
      "postcode": "CV21 4LS",
      "addressLine1": "35 Jackson Road",
      "addressLine2": "",
      "longitude": -1.2209963,
      "latitude": 52.3625938
    },
    {
      "uprn": "100070191391",
      "organisationName": "",
      "town": "Rugby",
      "county": "",
      "postcode": "CV21 1HH",
      "addressLine1": "35 Main Street",
      "addressLine2": "Newbold",
      "longitude": -1.2823275,
      "latitude": 52.3903754
    },
    {
      "uprn": "100070196683",
      "organisationName": "",
      "town": "Rugby",
      "county": "",
      "postcode": "CV21 4PF",
      "addressLine1": "36 Roper Close",
      "addressLine2": "",
      "longitude": -1.21846,
      "latitude": 52.3590169
    },
    {
      "uprn": "100070196423",
      "organisationName": "",
      "town": "Rugby",
      "county": "",
      "postcode": "CV21 1BW",
      "addressLine1": "39 Reservoir Road",
      "addressLine2": "",
      "longitude": -1.2474234,
      "latitude": 52.3863196
    },
    {
      "uprn": "100070180954",
      "organisationName": "",
      "town": "Rugby",
      "county": "",
      "postcode": "CV23 0BP",
      "addressLine1": "41 Church Street",
      "addressLine2": "Clifton Upon Dunsmore",
      "longitude": -1.2207557,
      "latitude": 52.3837824
    },
    {
      "uprn": "100070195502",
      "organisationName": "",
      "town": "Rugby",
      "county": "",
      "postcode": "CV21 1UL",
      "addressLine1": "43 Pickard Close",
      "addressLine2": "",
      "longitude": -1.2367175,
      "latitude": 52.3902606
    },
    {
      "uprn": "100070196187",
      "organisationName": "",
      "town": "Rugby",
      "county": "",
      "postcode": "CV21 3EX",
      "addressLine1": "48 Railway Terrace",
      "addressLine2": "",
      "longitude": -1.2570015,
      "latitude": 52.3735569
    },
    {
      "uprn": "100070180703",
      "organisationName": "",
      "town": "Rugby",
      "county": "",
      "postcode": "CV22 5RP",
      "addressLine1": "50 Chaucer Road",
      "addressLine2": "",
      "longitude": -1.2694818,
      "latitude": 52.3522408
    },
    {
      "uprn": "100070197652",
      "organisationName": "",
      "town": "Rugby",
      "county": "",
      "postcode": "CV22 6BD",
      "addressLine1": "50 Saunton Road",
      "addressLine2": "",
      "longitude": -1.2716895,
      "latitude": 52.3644183
    },
    {
      "uprn": "10010506351",
      "organisationName": "",
      "town": "Rugby",
      "county": "",
      "postcode": "CV22 7EL",
      "addressLine1": "58 Farnborough Avenue",
      "addressLine2": "",
      "longitude": -1.2801042,
      "latitude": 52.368956
    },
    {
      "uprn": "100070188150",
      "organisationName": "",
      "town": "Rugby",
      "county": "",
      "postcode": "CV22 6DE",
      "addressLine1": "61 Hudson Road",
      "addressLine2": "",
      "longitude": -1.2788674,
      "latitude": 52.361028
    },
    {
      "uprn": "100070182217",
      "organisationName": "",
      "town": "Rugby",
      "county": "",
      "postcode": "CV21 3JY",
      "addressLine1": "65 Craven Road",
      "addressLine2": "",
      "longitude": -1.2497068,
      "latitude": 52.3762815
    },
    {
      "uprn": "100070188157",
      "organisationName": "",
      "town": "Rugby",
      "county": "",
      "postcode": "CV22 6DE",
      "addressLine1": "68 Hudson Road",
      "addressLine2": "",
      "longitude": -1.2796343,
      "latitude": 52.3608259
    },
    {
      "uprn": "100070185902",
      "organisationName": "",
      "town": "Rugby",
      "county": "",
      "postcode": "CV21 4LJ",
      "addressLine1": "99 Gibson Drive",
      "addressLine2": "",
      "longitude": -1.2225813,
      "latitude": 52.3651575
    },
    {
      "uprn": "100070176025",
      "organisationName": "",
      "town": "Rugby",
      "county": "",
      "postcode": "CV22 7HB",
      "addressLine1": "175 Addison Road",
      "addressLine2": "Bilton",
      "longitude": -1.2858964,
      "latitude": 52.3649398
    },
    {
      "uprn": "100070194607",
      "organisationName": "",
      "town": "Rugby",
      "county": "",
      "postcode": "CV21 3LY",
      "addressLine1": "180 Oxford Street",
      "addressLine2": "",
      "longitude": -1.2477221,
      "latitude": 52.3764178
    },
    {
      "uprn": "100070183416",
      "organisationName": "",
      "town": "Rugby",
      "county": "",
      "postcode": "CV22 6HX",
      "addressLine1": "252 Dunchurch Road",
      "addressLine2": "",
      "longitude": -1.272445,
      "latitude": 52.354183
    },
    {
      "uprn": "100070190665",
      "organisationName": "",
      "town": "Rugby",
      "county": "",
      "postcode": "CV21 4AE",
      "addressLine1": "278 Lower Hillmorton Road",
      "addressLine2": "",
      "longitude": -1.2269203,
      "latitude": 52.3647813
    },
    {
      "uprn": "10010514434",
      "organisationName": "",
      "town": "Rugby",
      "county": "",
      "postcode": "CV23 8DT",
      "addressLine1": "3 Chapel Barn",
      "addressLine2": "Grandborough Fields Road",
      "longitude": -1.2857591,
      "latitude": 52.2969416
    },
    {
      "uprn": "100071238939",
      "organisationName": "",
      "town": "Rugby",
      "county": "",
      "postcode": "CV23 0BB",
      "addressLine1": "Blaise Cottage",
      "addressLine2": "Lilbourne Road",
      "longitude": -1.2007942,
      "latitude": 52.3834783
    },
    {
      "uprn": "10010524285",
      "organisationName": "",
      "town": "Rugby",
      "county": "",
      "postcode": "CV21 1JF",
      "addressLine1": "Brownsover Medical Centre",
      "addressLine2": "Bow Fell",
      "longitude": -1.2420974,
      "latitude": 52.3910545
    },
    {
      "uprn": "200001642139",
      "organisationName": "",
      "town": "Rugby",
      "county": "",
      "postcode": "CV23 0PH",
      "addressLine1": "Rose Cottage",
      "addressLine2": "Street Ashton",
      "longitude": -1.3275215,
      "latitude": 52.4352775
    },
    {
      "uprn": "100071502532",
      "organisationName": "",
      "town": "Rugby",
      "county": "",
      "postcode": "CV23 0HS",
      "addressLine1": "The Old Rectory",
      "addressLine2": "Main Street",
      "longitude": -1.3006806,
      "latitude": 52.4089963
    },
    {
      "uprn": "100071239307",
      "organisationName": "",
      "town": "Rugby",
      "county": "",
      "postcode": "CV23 0HS",
      "addressLine1": "Wildcroft",
      "addressLine2": "Main Street",
      "longitude": -1.3016271,
      "latitude": 52.4086423
    },
    {
      "uprn": "10010525379",
      "organisationName": "",
      "town": "Rugby",
      "county": "",
      "postcode": "CV23 1DA",
      "addressLine1": "Flat 5, Crick House",
      "addressLine2": "1 Station Avenue",
      "longitude": -1.1952031,
      "latitude": 52.3572425
    },
    {
      "uprn": "10094755996",
      "organisationName": "",
      "town": "Rugby",
      "county": "",
      "postcode": "CV21 3EP",
      "addressLine1": "Flat 62, Highland Court",
      "addressLine2": "Gavel Drive",
      "longitude": -1.2525355,
      "latitude": 52.3779507
    },
    {
      "uprn": "100071237517",
      "organisationName": "",
      "town": "Rugby",
      "county": "",
      "postcode": "CV23 9RY",
      "addressLine1": "Greenacres",
      "addressLine2": "11 Birdingbury Road",
      "longitude": -1.3993744,
      "latitude": 52.3173975
    },
    {
      "uprn": "100071502310",
      "organisationName": "People Express Taxis (Rugby) Ltd",
      "town": "Rugby",
      "county": "",
      "postcode": "CV22 7DG",
      "addressLine1": "Unit 2",
      "addressLine2": "25 Somers Road",
      "longitude": -1.2877917,
      "latitude": 52.3722391
    }
  ]
}